City_ID,City,Lat,Lng,Max Temp,Humidity,Cloudiness,Wind Speed,Description
0,La Romana,18.4273,-68.9728,84.56,70,20,6.91,few clouds
1,Lodwar,3.1191,35.5973,88.84,33,56,7.2,broken clouds
2,Cape Town,-33.9258,18.4232,70.38,81,20,11.5,few clouds
3,Ribeira Grande,38.5167,-28.7,63.0,82,75,19.57,broken clouds
4,East London,-33.0153,27.9116,72.46,69,0,8.95,clear sky
5,Ushuaia,-54.8,-68.3,53.26,43,40,11.5,scattered clouds
6,Sakakah,29.9697,40.2064,65.77,35,0,14.85,clear sky
7,Ponta Do Sol,32.6667,-17.1,70.0,91,68,6.51,broken clouds
8,Richards Bay,-28.783,32.0377,75.13,79,0,11.88,clear sky
9,Qaanaaq,77.484,-69.3632,5.18,76,0,8.3,clear sky
10,Kruisfontein,-34.0033,24.7314,65.88,81,0,6.2,clear sky
11,Arraial Do Cabo,-22.9661,-42.0278,85.96,65,40,24.16,scattered clouds
12,Robertsport,6.7533,-11.3686,80.13,84,48,12.3,scattered clouds
13,Saint George,37.1041,-113.5841,48.43,48,0,3.44,clear sky
14,Port Elizabeth,-33.918,25.5701,68.31,85,0,19.57,clear sky
15,Georgetown,5.4112,100.3354,80.53,83,20,3.44,few clouds
16,Ilulissat,69.2167,-51.1,26.62,46,75,1.14,broken clouds
17,Arlit,18.7369,7.3853,91.36,8,100,11.1,overcast clouds
18,Salalah,17.0151,54.0924,78.89,44,0,0.0,clear sky
19,Aksum,14.1245,38.7244,65.98,38,100,6.46,overcast clouds
20,Mitsamiouli,-11.3847,43.2844,83.1,73,100,9.89,overcast clouds
21,Sal Rei,16.1833,-22.9167,75.4,69,0,12.66,clear sky
22,Mar Del Plata,-38.0023,-57.5575,80.83,79,40,5.99,scattered clouds
23,Corn Island,12.1694,-83.0418,78.98,74,70,12.8,broken clouds
24,Nanortalik,60.1432,-45.2371,29.37,82,6,3.91,clear sky
25,Jamestown,42.097,-79.2353,36.52,61,0,11.5,clear sky
26,Dikson,73.5069,80.5464,-30.44,97,87,8.32,overcast clouds
27,Jalingo,8.8833,11.3667,91.09,21,100,1.79,overcast clouds
28,Vardo,70.3705,31.1107,19.38,79,20,20.71,few clouds
29,Bredasdorp,-34.5322,20.0403,67.69,68,0,8.25,clear sky
30,Turkistan,43.0,68.0,43.9,70,86,8.1,overcast clouds
31,Olavarria,-36.8927,-60.3225,94.12,15,8,9.64,clear sky
32,Paamiut,61.994,-49.6678,24.44,72,13,9.44,few clouds
33,Vagur,61.4732,-6.8119,36.1,58,100,17.65,light rain
34,Chuy,-33.6971,-53.4616,82.06,64,97,13.62,overcast clouds
35,Rabak,13.1809,32.74,92.61,21,100,10.65,overcast clouds
36,Hithadhoo,-0.6,73.0833,82.09,76,28,12.21,scattered clouds
37,Busselton,-33.65,115.3333,62.46,79,0,0.72,clear sky
38,Dakar,14.6937,-17.4441,94.08,65,0,9.22,clear sky
39,Kiruna,67.8557,20.2251,0.52,60,20,8.05,few clouds
40,Bengkulu,-3.8004,102.2655,75.97,90,24,4.32,few clouds
41,Victoria,22.2855,114.1577,70.2,82,0,5.12,clear sky
42,Marzuq,14.4,46.4667,64.18,57,100,6.8,overcast clouds
43,Carnarvon,-24.8667,113.6333,77.05,75,0,16.42,clear sky
44,Ust-Tsilma,65.441,52.1498,2.75,97,85,5.37,overcast clouds
45,Port-Cartier,50.0334,-66.8654,50.22,93,42,6.85,scattered clouds
46,Wawa,9.9022,4.4192,93.09,29,19,3.87,few clouds
47,Oistins,13.0667,-59.5333,82.49,65,20,11.5,few clouds
48,Sharya,58.3686,45.5144,22.71,90,100,10.87,overcast clouds
49,Mahebourg,-20.4081,57.7,79.09,78,40,3.44,scattered clouds
50,Bilma,18.6853,12.9164,86.63,10,12,7.31,few clouds
51,Vestmannaeyjar,63.4427,-20.2734,27.73,46,1,10.58,clear sky
52,Aksarka,66.5606,67.7975,-5.48,93,99,14.5,overcast clouds
53,Santa Rosa,14.3122,121.1114,76.08,82,6,5.08,clear sky
54,Torbay,47.6666,-52.7314,35.38,94,100,32.21,overcast clouds
55,Naantali,60.4674,22.0243,24.12,62,0,8.05,clear sky
56,Portree,57.4129,-6.1942,26.53,72,10,5.37,clear sky
57,Bahia Blanca,-38.7196,-62.2724,81.12,41,0,11.5,clear sky
58,Yar-Sale,66.8333,70.8333,-3.84,88,100,16.62,overcast clouds
59,Chiredzi,-21.05,31.6667,68.81,67,66,2.59,broken clouds
60,Kolokani,13.5728,-8.0339,83.91,7,77,8.63,broken clouds
61,Qaqortoq,60.7167,-46.0333,26.26,74,0,1.83,clear sky
62,Upernavik,72.7868,-56.1549,2.95,98,100,8.99,overcast clouds
63,Krasnoselkup,65.7,82.4667,-22.77,99,32,8.95,scattered clouds
64,Iqaluit,63.7506,-68.5145,24.53,79,20,12.66,few clouds
65,Piet Retief,-27.0071,30.8132,61.68,98,45,2.08,scattered clouds
66,Tabora,-5.0167,32.8,73.18,68,0,0.0,clear sky
67,Margate,51.3813,1.3862,39.9,91,100,5.99,heavy intensity rain
68,Quime,-16.9833,-67.2167,62.64,66,99,6.06,overcast clouds
69,Nikki,9.9401,3.2108,93.65,24,98,2.1,overcast clouds
70,Hermanus,-34.4187,19.2345,62.8,77,0,13.94,clear sky
71,Murighiol,45.0333,29.1667,50.49,53,24,6.24,few clouds
72,Warrington,53.3925,-2.5802,35.94,88,40,9.22,scattered clouds
73,Cayenne,4.9333,-52.3333,84.24,70,100,12.66,overcast clouds
74,Desnogorsk,54.1508,33.2815,27.43,87,8,12.46,clear sky
75,Asfi,32.2994,-9.2372,63.3,84,100,9.55,overcast clouds
76,Saldanha,-33.0117,17.9442,64.45,83,0,8.01,clear sky
77,Nadym,65.5333,72.5167,-10.57,88,58,11.52,broken clouds
78,Kudahuvadhoo,2.6708,72.8944,82.42,76,8,15.68,clear sky
79,Muzaffarpur,26.1167,85.4,66.65,46,0,6.24,clear sky
80,Lebu,-37.6167,-73.65,58.55,96,100,2.71,overcast clouds
81,Husavik,66.0449,-17.3389,21.74,76,100,7.18,light snow
82,Aquiraz,-3.9014,-38.3911,86.09,75,68,11.74,broken clouds
83,Dingle,10.9995,122.6711,74.82,94,9,6.89,clear sky
84,Bambous Virieux,-20.3428,57.7575,79.05,78,40,3.44,scattered clouds
85,Sjenica,43.2731,19.9994,37.92,87,31,7.16,scattered clouds
86,Nouadhibou,20.931,-17.0347,75.18,43,0,13.8,clear sky
87,Vila Velha,-20.3297,-40.2925,84.15,78,20,14.97,few clouds
88,Korla,41.7597,86.1469,48.43,45,100,7.87,overcast clouds
89,Coihaique,-45.5752,-72.0662,59.61,58,75,11.5,light rain
90,Kargasok,59.0556,80.8572,-10.07,97,36,9.06,scattered clouds
91,Sao Gabriel Da Cachoeira,-0.1303,-67.0892,89.4,66,40,3.44,scattered clouds
92,Luanda,-8.8368,13.2343,80.6,76,20,10.36,few clouds
93,Sokoto,13.0609,5.239,91.94,10,74,9.01,broken clouds
94,Matara,5.9485,80.5353,76.06,80,5,12.37,clear sky
95,Kedrovyy,56.1667,91.8167,23.41,94,100,8.9,overcast clouds
96,Abha,18.2164,42.5053,60.62,77,0,5.75,clear sky
97,Itarema,-2.9248,-39.9167,84.36,71,16,15.95,few clouds
98,Port Alfred,-33.5906,26.891,64.18,87,0,1.99,clear sky
99,Tiznit,29.5833,-9.5,63.43,68,5,5.84,clear sky
100,Dalgopol,43.05,27.35,53.11,56,11,2.98,few clouds
101,Pokrovskoye,47.4157,38.8971,45.77,75,57,9.86,broken clouds
102,Saint-Francois,46.4154,3.9054,54.84,82,100,6.91,overcast clouds
103,Souillac,-20.5167,57.5167,79.18,78,40,3.44,scattered clouds
104,Bandarbeyla,9.4942,50.8122,77.94,79,26,13.62,scattered clouds
105,Grand-Santi,4.25,-54.3833,82.71,74,96,2.93,overcast clouds
106,Idah,7.1065,6.7342,87.42,56,84,9.62,broken clouds
107,Bernay,49.1667,0.6667,53.42,88,100,7.0,light rain
108,Oyon,-10.6681,-76.7731,57.24,67,100,5.99,overcast clouds
109,Chester,40.1254,-75.8749,46.99,54,0,14.97,clear sky
110,Rio Verde De Mato Grosso,-18.9181,-54.8442,84.83,68,100,3.91,light rain
111,Saint-Denis,48.9167,2.3333,55.89,88,100,11.5,overcast clouds
112,Sao Joao Da Barra,-21.6403,-41.0511,86.09,82,90,12.26,overcast clouds
113,Saint-Philippe,-21.3585,55.7679,76.59,78,98,10.63,overcast clouds
114,Clyde River,70.4692,-68.5914,5.23,85,20,13.8,few clouds
115,Grindavik,63.8424,-22.4338,27.07,50,40,14.97,scattered clouds
116,Takoradi,4.8845,-1.7554,81.05,80,93,7.99,overcast clouds
117,Olafsvik,64.8945,-23.7142,25.92,61,58,17.25,broken clouds
118,Azare,11.6765,10.1948,86.59,11,4,10.78,clear sky
119,Kaspiysk,42.8816,47.6392,44.78,93,100,0.0,overcast clouds
120,Sao Filipe,14.8961,-24.4956,77.23,64,10,4.14,clear sky
121,Tasiilaq,65.6145,-37.6368,17.76,80,91,1.23,overcast clouds
122,Hualmay,-11.0964,-77.6139,79.52,65,79,9.51,broken clouds
123,Kilindoni,-7.9139,39.6668,81.41,79,51,15.93,broken clouds
124,Miraflores,19.2167,-98.8083,77.04,14,0,7.16,clear sky
125,Punta Arenas,-53.15,-70.9167,51.91,62,20,23.02,few clouds
126,Thompson,55.7435,-97.8558,8.76,56,20,8.05,few clouds
127,Ravar,31.2656,56.8055,68.74,40,100,2.75,overcast clouds
128,Adrar,20.5022,-10.0711,79.99,8,0,7.87,clear sky
129,Necochea,-38.5473,-58.7368,72.77,62,99,11.59,overcast clouds
130,Cidreira,-30.1811,-50.2056,83.03,66,99,6.42,overcast clouds
131,Sinnamary,5.3833,-52.95,79.2,78,81,10.16,broken clouds
132,Bathsheba,13.2167,-59.5167,83.01,65,20,11.5,few clouds
133,Gagnoa,6.1293,-5.9437,83.43,61,83,3.83,broken clouds
134,Melfi,40.9965,15.6514,54.5,88,98,8.59,overcast clouds
135,Longyearbyen,78.2186,15.6401,1.24,66,75,24.16,broken clouds
136,Quatre Cocos,-20.2078,57.7625,78.91,77,28,11.05,scattered clouds
137,Ushtobe,45.2514,77.9838,38.25,95,100,8.93,overcast clouds
138,Bulancak,40.9372,38.2291,49.82,62,0,2.3,clear sky
139,Havoysund,70.9963,24.6622,25.03,82,100,28.14,overcast clouds
140,Strezhevoy,60.7333,77.5889,-17.28,99,22,6.69,few clouds
141,La Palma,33.8464,-118.0467,62.92,62,75,8.05,broken clouds
142,Farsund,58.0948,6.8047,34.95,65,27,7.18,scattered clouds
143,Maldonado,-34.6667,-54.9167,79.23,47,38,12.93,scattered clouds
144,Belmonte,-15.8631,-38.8828,82.85,64,72,7.18,broken clouds
145,Nacala,-14.5428,40.6728,76.05,93,39,5.01,light rain
146,Havelock,34.8791,-76.9013,55.98,40,0,18.41,clear sky
147,Belyy Yar,53.6039,91.3903,33.69,73,0,11.18,clear sky
148,Luderitz,-26.6481,15.1594,62.69,89,0,9.37,clear sky
149,Hargeysa,9.56,44.065,66.09,86,33,9.1,scattered clouds
150,Scarborough,54.2797,-0.4044,35.91,83,100,5.99,overcast clouds
151,Vila Franca Do Campo,37.7167,-25.4333,63.01,87,54,20.2,light rain
152,Narsaq,60.9167,-46.05,37.62,73,0,3.09,clear sky
153,Nantucket,41.2835,-70.0995,44.74,91,100,19.57,mist
154,Chimbote,-9.0853,-78.5783,81.09,62,86,9.64,overcast clouds
155,Tabas,33.5959,56.9244,72.39,36,100,0.72,overcast clouds
156,Chapais,49.7834,-74.8492,22.78,91,100,9.95,overcast clouds
157,Bonthe,7.5264,-12.505,79.18,72,84,12.55,broken clouds
158,Grand Gaube,-20.0064,57.6608,79.2,75,89,1.99,overcast clouds
159,Zaraysk,54.7653,38.8836,33.1,98,100,18.25,snow
160,Aksu,41.1231,80.2644,51.6,35,25,1.16,scattered clouds
161,Keti Bandar,24.1447,67.4497,76.42,66,0,6.22,clear sky
162,Hendrina,-26.1588,29.7153,66.15,59,67,3.36,broken clouds
163,Saint-Tite,46.7334,-72.5658,38.25,100,98,10.8,overcast clouds
164,Viransehir,37.2353,39.7631,51.03,45,100,3.4,overcast clouds
165,San Cristobal,7.7669,-72.225,71.78,47,100,1.14,overcast clouds
166,Eydhafushi,5.1033,73.0708,81.39,78,9,18.43,clear sky
167,Lagoa,39.05,-27.9833,59.76,82,50,33.69,scattered clouds
168,Livramento,-3.0254,-60.1803,77.67,94,75,6.91,light rain
169,Kristiinankaupunki,62.2743,21.376,11.1,87,98,10.96,overcast clouds
170,Joshimath,30.5667,79.5667,44.55,72,85,5.84,overcast clouds
171,Los Llanos De Aridane,28.6585,-17.9182,65.95,93,75,2.3,broken clouds
172,Rio Grande,-32.035,-52.0986,93.31,65,28,8.14,scattered clouds
173,Mana,5.6592,-53.7767,80.62,73,99,10.49,overcast clouds
174,Gumla,23.05,84.55,68.54,43,4,5.82,clear sky
175,Yei,4.095,30.6779,82.47,33,65,6.93,broken clouds
176,Les Cayes,18.2,-73.75,82.74,50,93,8.21,overcast clouds
177,Cervo,43.6702,-7.4101,60.96,75,97,15.43,overcast clouds
178,Manaira,-7.7061,-38.1544,92.08,20,36,7.34,scattered clouds
179,Cockburn Town,21.4612,-71.1419,80.56,57,40,13.8,scattered clouds
180,Bud,39.447,-86.1758,49.33,36,88,11.56,overcast clouds
181,Biltine,14.5333,20.9167,87.17,11,100,14.2,overcast clouds
182,Dogondoutchi,13.6393,4.0287,92.44,22,100,8.34,overcast clouds
183,Bafq,31.6128,55.4107,69.33,37,96,4.36,overcast clouds
184,Malakal,9.5334,31.6605,89.56,22,85,2.13,overcast clouds
185,Pinheiro Machado,-31.5783,-53.3811,89.46,31,93,6.24,overcast clouds
186,Soller,39.7662,2.7152,59.86,84,95,4.0,overcast clouds
187,Afyonkarahisar,38.75,30.6667,44.04,72,44,3.53,scattered clouds
188,Santa Cruz Cabralia,-16.2781,-39.0247,82.63,78,40,6.91,scattered clouds
189,Puerto Ayora,-0.7393,-90.3518,85.96,80,77,11.99,light rain
190,Arnsberg,51.3297,8.0071,35.76,94,100,2.37,light snow
191,Kaduna,10.5222,7.4383,82.94,15,76,2.93,broken clouds
192,Kushmurun,52.4503,64.6311,23.11,87,100,17.63,overcast clouds
193,Araouane,18.9048,-3.5265,80.1,7,0,9.62,clear sky
194,Rawson,-43.3002,-65.1023,77.65,28,16,7.58,few clouds
195,Bam,29.106,58.357,71.85,25,87,7.2,overcast clouds
196,Roxana,10.2753,-83.7513,90.03,60,100,6.22,overcast clouds
197,Eyl,7.9803,49.8164,77.0,80,51,15.43,broken clouds
198,Mlandizi,-6.7,38.7333,77.31,82,93,7.56,overcast clouds
199,San Pedro,14.35,121.0167,75.31,81,20,0.0,few clouds
200,Sarmanovo,55.2553,52.5891,27.28,90,100,10.38,overcast clouds
201,Begun,24.9833,75.0,69.06,40,3,3.67,clear sky
202,Jacareacanga,-6.2222,-57.7528,75.07,96,99,2.77,overcast clouds
203,Vallenar,-28.5708,-70.7581,82.76,42,0,9.55,clear sky
204,Ostrovnoy,68.0531,39.5131,8.64,96,87,15.75,overcast clouds
205,Ankazoabo,-22.2833,44.5167,70.39,93,100,3.2,overcast clouds
206,Hobyo,5.3505,48.5268,79.07,79,6,15.93,clear sky
207,Aripuana,-9.1667,-60.6333,83.07,82,73,2.06,broken clouds
208,Ceres,37.5949,-120.9577,54.93,65,100,0.0,overcast clouds
209,Lerwick,60.1545,-1.1494,30.2,59,86,16.26,light snow
210,Cabedelo,-6.9811,-34.8339,84.87,71,82,16.67,broken clouds
211,Ivankiv,50.9386,29.8943,33.39,92,93,5.53,overcast clouds
212,Boa Vista,2.8197,-60.6733,82.38,65,75,18.41,broken clouds
213,Macas,-2.3167,-78.1167,80.35,65,75,8.05,light rain
214,Koygorodok,60.445,50.9968,7.9,100,90,4.81,overcast clouds
215,Beyneu,45.3167,55.2,38.7,63,29,13.78,scattered clouds
216,Oranjemund,-28.55,16.4333,63.36,91,2,2.28,clear sky
217,Santa Maria,-29.6842,-53.8069,90.7,52,40,4.61,scattered clouds
218,Kharitonovo,61.4009,47.4978,15.24,95,99,7.54,overcast clouds
219,Mahon,39.8885,4.2658,59.56,82,0,13.8,clear sky
220,Eidfjord,60.4675,7.0719,21.96,98,95,3.47,light snow
221,Kholm,59.2667,32.85,21.69,95,33,6.96,scattered clouds
222,Kidal,18.4411,1.4078,86.54,6,99,9.06,overcast clouds
223,Lumeje,-11.55,20.7833,67.42,83,100,3.87,overcast clouds
224,Buraydah,26.326,43.975,66.65,55,11,9.51,few clouds
225,Porto Novo,6.4965,2.6036,85.82,75,45,10.94,scattered clouds
226,Menongue,-14.6585,17.691,65.86,92,98,2.24,overcast clouds
227,Inhambane,-23.865,35.3833,78.78,94,20,10.16,few clouds
228,Praia Da Vitoria,38.7333,-27.0667,62.85,88,40,21.05,scattered clouds
229,Masumbwe,-3.6333,32.1833,69.12,71,99,2.53,overcast clouds
230,Omboue,-1.5746,9.2618,79.03,88,99,8.21,overcast clouds
231,Saint Andrews,34.0454,-81.1293,68.2,15,0,9.22,clear sky
232,Labytnangi,66.6572,66.4183,-14.04,99,100,6.04,overcast clouds
233,Kolyubakino,55.668,36.5323,32.29,83,100,10.87,light snow
234,Charyshskoye,51.3978,83.5598,25.12,87,100,8.93,overcast clouds
235,Fier,40.7239,19.5561,51.51,80,58,5.95,broken clouds
236,Wamba,8.9333,8.6,85.55,37,38,2.51,scattered clouds
237,Henties Bay,-22.116,14.2845,63.99,84,0,10.85,clear sky
238,Grasse,43.6667,6.9167,56.25,64,0,3.44,moderate rain
239,Sheltozero,61.3667,35.3667,23.2,96,100,6.91,light snow
240,Svetlogorsk,52.6333,29.7333,28.47,86,16,6.46,few clouds
241,Inirida,3.8653,-67.9239,82.98,76,100,2.75,overcast clouds
242,Emba,48.8264,58.1442,16.09,79,65,6.82,broken clouds
243,Baraut,29.1,77.2667,66.4,31,99,3.24,overcast clouds
244,Humaita,-7.5061,-63.0208,83.3,85,69,2.21,broken clouds
245,Abalak,58.1286,68.5944,-4.45,98,66,5.12,broken clouds
246,Birin,26.8865,88.0718,54.25,38,0,5.57,clear sky
247,Pointe Michel,15.25,-61.3833,84.49,64,90,4.29,overcast clouds
248,Novouzensk,50.4592,48.1431,39.56,75,100,16.46,overcast clouds
249,Parrita,9.5201,-84.3225,82.29,76,98,9.86,overcast clouds
250,Fonte Boa,-2.4959,-66.2662,77.5,84,100,0.31,overcast clouds
251,Camopi,3.1655,-52.3158,78.46,88,100,3.65,overcast clouds
252,Butembo,0.15,29.2833,61.7,79,83,3.83,broken clouds
253,Rudsar,37.1376,50.288,51.78,92,99,2.33,light rain
254,Artyom,40.4723,50.333,48.34,91,100,10.47,overcast clouds
255,Cururupu,-1.8283,-44.8683,79.97,83,36,5.7,scattered clouds
256,Pimampiro,0.4,-77.9667,65.97,82,100,3.67,light rain
257,Saint-Augustin,51.226,-58.6502,35.76,80,94,14.88,overcast clouds
258,Cornwall,45.0181,-74.7281,30.58,59,100,9.22,overcast clouds
259,Rize,40.9044,40.8949,33.24,64,100,6.87,overcast clouds
260,Meghradzor,40.6061,44.6515,35.22,61,100,1.61,overcast clouds
261,Kayerkan,69.3497,87.7602,-30.48,66,99,2.28,overcast clouds
262,Rorvik,64.8621,11.2373,19.38,67,0,5.75,clear sky
263,Benidorm,38.5382,-0.131,69.84,80,100,6.69,overcast clouds
264,Vicuna,-30.0319,-70.7081,88.77,42,2,9.13,clear sky
265,Caravelas,-17.7125,-39.2481,81.03,72,62,7.09,broken clouds
266,Koboko,3.4136,30.9599,80.46,30,92,6.67,overcast clouds
267,Ipameri,-17.7219,-48.1597,79.65,66,100,5.03,light rain
268,San Alberto,7.7611,-73.3922,85.96,68,100,3.67,overcast clouds
269,Touros,-5.1989,-35.4608,81.66,75,23,16.13,few clouds
270,Klaksvik,62.2266,-6.589,29.32,60,100,30.53,light snow
271,Minab,27.1467,57.0801,70.12,56,76,0.0,broken clouds
272,Lukovetskiy,64.2956,41.9211,17.89,95,100,5.41,overcast clouds
273,La Ligua,-32.4524,-71.2311,76.77,47,0,8.95,clear sky
274,Shorewood,41.52,-88.2017,51.31,32,0,14.97,clear sky
275,Urengoy,65.9667,78.3667,-14.06,91,81,7.92,broken clouds
276,Lujan,-34.5703,-59.105,98.02,50,9,4.99,clear sky
277,Comodoro Rivadavia,-45.8667,-67.5,71.46,26,0,18.41,clear sky
278,Floro,61.5996,5.0328,26.96,59,0,6.91,clear sky
279,Saint-Joseph,-21.3667,55.6167,75.58,78,98,10.83,overcast clouds
280,Castro,-24.7911,-50.0119,75.74,68,100,7.63,overcast clouds
281,Penzance,50.1186,-5.5371,50.68,90,79,28.03,broken clouds
282,Luau,-10.7073,22.2247,65.52,95,99,3.6,overcast clouds
283,Cortona,43.2745,11.9871,51.76,90,100,8.5,overcast clouds
284,Valparaiso,-33.0393,-71.6273,79.03,56,0,12.66,clear sky
285,Barra Patuca,15.8,-84.2833,81.79,59,62,8.21,broken clouds
286,Bida,9.0833,6.0167,93.13,32,70,4.23,broken clouds
287,Amol,36.4696,52.3507,50.72,92,48,2.24,scattered clouds
288,Khandbari,27.3747,87.2039,58.77,44,2,4.27,clear sky
289,Marawi,7.9986,124.2928,68.14,95,83,1.81,broken clouds
290,Saint-Paul-Les-Dax,43.7272,-1.0516,66.25,78,100,11.5,overcast clouds
291,Vagay,57.9375,69.0217,-6.29,100,76,4.29,broken clouds
292,Zheleznodorozhnyy,55.7503,38.0042,32.61,89,100,11.18,light snow
293,Haldia,22.0605,88.1097,77.32,38,86,4.94,overcast clouds
294,Springbok,-29.6643,17.8865,58.3,75,0,3.87,clear sky
295,San Andres,12.5847,-81.7006,82.42,65,75,10.36,broken clouds
296,Kalangala,-0.3089,32.225,78.15,71,49,5.7,scattered clouds
297,Tarabha,20.7333,83.65,76.14,32,86,3.67,overcast clouds
298,Lisakovsk,52.5369,62.4936,27.03,80,100,20.67,overcast clouds
299,Mutis,6.2262,-77.4044,78.57,85,92,3.76,light rain
300,Gamboma,-1.8764,15.8644,77.13,79,88,3.42,overcast clouds
301,Laguna,38.421,-121.4238,55.11,59,20,10.36,few clouds
302,Fulton,33.7668,-84.4499,69.84,19,0,9.22,clear sky
303,Ilinge,-31.9768,27.0427,56.1,87,18,5.77,few clouds
304,Antofagasta,-23.65,-70.4,78.08,66,0,10.58,clear sky
305,Constantine,36.365,6.6147,58.41,67,0,2.3,clear sky
306,Coquimbo,-29.9533,-71.3436,71.33,68,0,10.36,clear sky
307,Piacenza,45.0468,9.6994,57.22,65,95,3.02,overcast clouds
308,Kabinda,-6.1333,24.4833,69.33,92,81,3.8,broken clouds
309,Diu,20.7141,70.9822,78.17,51,23,7.85,few clouds
310,Igarka,67.4667,86.5833,-22.16,96,92,9.69,overcast clouds
311,Synya,65.3718,58.0387,7.61,93,98,9.89,overcast clouds
312,Santa Marta,11.2408,-74.199,86.05,69,75,11.5,broken clouds
313,Bhatkal,13.9667,74.5667,79.5,52,13,6.58,few clouds
314,Lima,-12.0432,-77.0282,77.25,69,0,14.97,clear sky
315,Altay,47.8667,88.1167,34.88,98,100,3.78,light snow
316,Kalmar,56.6616,16.3616,27.97,75,0,4.61,clear sky
317,Razole,16.4833,81.8333,70.41,83,3,3.36,clear sky
318,Kharagpur,22.3333,87.3333,75.15,37,100,4.21,overcast clouds
319,Cordoba,-31.4135,-64.1811,102.42,28,20,14.97,few clouds
320,Koulikoro,14.0,-7.75,81.54,7,23,9.42,few clouds
321,Buritis,-15.6178,-46.4233,74.08,86,100,4.52,overcast clouds
322,Beloha,-25.1667,45.05,74.19,92,92,8.52,overcast clouds
323,Corrales,35.2378,-106.6067,67.96,29,75,15.01,broken clouds
324,Sokoni,-6.4333,39.55,82.26,76,33,13.98,scattered clouds
325,Izazi,-7.2,35.7333,73.0,68,66,2.68,broken clouds
326,Srivardhan,18.0333,73.0167,81.07,50,84,5.61,broken clouds
327,Salisbury,51.0693,-1.7957,38.97,94,75,18.41,broken clouds
328,Trelew,-43.249,-65.3051,82.06,17,11,11.16,few clouds
329,Mogadishu,2.0371,45.3438,78.42,87,8,19.01,clear sky
330,Sangueya,10.7,-14.3667,76.01,68,28,5.32,scattered clouds
331,Shushtar,32.0455,48.8567,71.53,53,68,8.03,broken clouds
332,Senneterre,48.3835,-77.2328,22.86,92,100,10.74,light snow
333,Ancud,-41.8697,-73.8203,57.49,74,100,9.55,overcast clouds
334,Natal,-5.795,-35.2094,79.45,83,75,6.91,broken clouds
335,Piacabucu,-10.4056,-36.4344,82.49,69,16,10.71,few clouds
336,Lugovoy,42.9472,72.7644,41.36,92,100,5.57,overcast clouds
337,Iberia,29.9502,-91.7507,82.47,51,0,0.0,clear sky
338,Tuni,17.35,82.55,71.78,66,0,3.47,clear sky
339,Awjilah,29.1081,21.2869,60.71,53,0,14.74,clear sky
340,Tyulgan,52.3405,56.166,28.67,97,100,18.61,snow
341,Pires Do Rio,-17.2997,-48.2794,77.61,76,100,4.9,moderate rain
342,Priyutnoye,46.1011,43.5072,43.03,73,10,10.22,clear sky
343,Saint-Pierre,-21.3393,55.4781,76.68,65,0,4.61,clear sky
344,Nouakchott,18.0858,-15.9785,85.93,46,0,13.47,clear sky
345,Hoyanger,61.2204,6.0749,22.5,95,93,0.63,light snow
346,Estelle,29.8458,-90.1067,84.99,68,75,4.61,broken clouds
347,Pangnirtung,66.1451,-65.7125,30.2,64,0,5.75,clear sky
348,Codrington,-38.2667,141.9667,53.82,81,98,8.77,overcast clouds
349,Nioro,13.35,-15.75,94.28,9,2,7.87,clear sky
350,Brinkovskaya,46.0347,38.5869,47.57,70,46,7.58,scattered clouds
351,San Carlos De Bariloche,-41.1456,-71.3082,60.55,44,75,28.77,broken clouds
352,Pisco,-13.7,-76.2167,84.25,58,0,9.22,clear sky
353,Saint Anthony,45.0205,-93.218,34.93,86,100,10.36,mist
354,Lahij,13.1667,44.5833,72.07,60,100,4.97,overcast clouds
355,Ugoofaaru,5.6667,73.0,81.14,77,0,16.24,clear sky
356,Pachino,36.7186,15.0907,55.62,88,10,12.15,clear sky
357,Salcioara,44.7167,25.5833,54.37,56,100,6.35,overcast clouds
358,Panara,22.0667,78.55,67.78,34,8,5.01,clear sky
359,Canavieiras,-15.675,-38.9472,81.61,69,95,6.26,overcast clouds
360,Visby,57.6409,18.296,30.42,51,0,21.85,clear sky
361,Zafra,38.4167,-6.4167,55.54,86,100,9.62,overcast clouds
362,Filadelfia,39.9523,-75.1638,50.11,48,20,18.41,few clouds
363,Siilinjarvi,63.0833,27.6667,13.28,66,0,10.0,clear sky
364,Namibe,-15.1961,12.1522,71.1,80,100,9.06,overcast clouds
365,Bani,18.2833,-70.3333,83.64,61,49,8.43,scattered clouds
366,Chibuto,-24.6867,33.5306,71.35,94,3,4.97,clear sky
367,Anloga,5.7947,0.8973,82.6,79,79,13.02,broken clouds
368,Gilgit,35.9221,74.3087,35.01,50,4,3.8,clear sky
369,Sur,22.5667,59.5289,75.47,58,3,7.54,clear sky
370,Frederico Westphalen,-27.3592,-53.3944,73.22,81,84,4.88,light rain
371,Amapa,1.0,-52.0,77.67,96,77,3.69,light rain
372,Linhares,-19.3911,-40.0722,81.63,70,99,7.16,overcast clouds
373,Konakovo,56.7,36.7667,29.61,84,100,12.39,overcast clouds
374,Sirari,-1.2333,34.4333,70.93,47,88,3.53,overcast clouds
375,Manitouwadge,49.1215,-85.8403,24.24,85,100,5.48,overcast clouds
376,San Pedro De Macoris,18.4616,-69.2972,86.13,59,55,10.92,broken clouds
377,Gujan-Mestras,44.6333,-1.0667,55.87,94,75,5.75,broken clouds
378,Yarega,63.4354,53.5765,5.47,99,84,4.97,broken clouds
379,Velsk,61.0701,42.0983,23.97,86,100,12.62,overcast clouds
380,Kavaratti,10.5669,72.642,80.83,71,5,6.69,clear sky
381,Tazovskiy,67.4667,78.7,-4.81,86,100,10.27,overcast clouds
382,Bako,5.7833,36.5667,73.36,41,67,2.93,broken clouds
383,Willowmore,-33.2926,23.4895,67.86,50,0,3.4,clear sky
384,Tukrah,32.5341,20.5791,57.67,80,13,8.03,few clouds
385,Itaperucu,-25.22,-49.3478,83.35,76,100,1.45,overcast clouds
386,Iquitos,-3.7481,-73.2472,87.84,74,75,6.91,broken clouds
387,Stephenville Crossing,48.5,-58.4318,39.33,60,75,18.41,broken clouds
388,Dudinka,69.4058,86.1778,-29.38,100,25,3.15,scattered clouds
389,Sokode,8.9833,1.1333,83.05,53,100,2.51,overcast clouds
390,Batie,9.8833,-2.9167,87.57,9,66,4.03,broken clouds
391,Rodrigues Alves,-7.738,-72.6509,91.6,67,92,3.91,overcast clouds
392,Mbarara,-0.608,30.65,70.72,60,81,2.62,broken clouds
393,Ocean City,39.2776,-74.5746,50.18,47,6,11.01,clear sky
394,Bolobo,-2.1667,16.2333,76.84,82,75,2.84,light rain
395,Nieuw Amsterdam,5.8833,-55.0833,87.96,62,40,11.5,scattered clouds
396,Riyadh,24.6877,46.7219,78.94,16,84,14.65,broken clouds
397,Nueve De Julio,-35.4444,-60.8831,97.74,14,19,8.5,few clouds
398,Cruzeiro Do Sul,-29.5128,-51.9853,95.49,56,21,4.5,few clouds
399,Port Blair,11.6667,92.75,78.62,69,7,6.2,clear sky
400,Sorland,67.667,12.6934,19.26,51,67,3.13,broken clouds
401,Mahajanga,-15.7167,46.3167,78.82,89,20,3.44,few clouds
402,Kalmunai,7.4167,81.8167,77.61,83,3,8.16,clear sky
403,Garissa,-0.4536,39.6401,83.21,56,14,16.91,few clouds
404,Atakpame,7.5333,1.1333,78.42,79,100,8.93,moderate rain
405,Alcaniz,41.05,-0.1333,60.76,59,100,15.21,overcast clouds
406,Sheopur,25.6667,76.7,71.37,40,63,2.89,broken clouds
407,Shenkursk,62.1091,42.896,21.76,86,100,10.0,overcast clouds
408,Zhanaozen,43.3,52.8,46.63,56,100,16.6,overcast clouds
409,Sayyan,15.1718,44.3244,60.39,36,95,0.2,overcast clouds
410,Aleppo,36.25,37.5,53.65,65,79,4.56,broken clouds
411,Abnub,27.2696,31.1511,64.62,31,0,6.17,clear sky
412,Manono,-7.3,27.4167,74.73,81,97,2.93,light rain
413,Axim,4.8699,-2.2405,80.4,83,73,6.02,broken clouds
414,Dubai,25.2582,55.3047,80.53,34,0,5.75,clear sky
415,Abu Samrah,35.3029,37.1841,53.44,73,97,8.12,overcast clouds
416,Yining,29.0361,114.5636,54.57,96,7,1.48,clear sky
417,Puerto Ayacucho,5.6639,-67.6236,89.1,52,98,2.19,overcast clouds
418,Iralaya,15.0,-83.2333,81.54,62,61,8.5,broken clouds
419,Mehamn,71.0357,27.8492,22.95,80,40,19.57,light snow
420,Jena,50.9333,11.5833,37.54,93,100,3.47,light rain
421,Khailar,25.35,78.5333,71.4,31,4,0.83,clear sky
422,Male,4.1748,73.5089,84.15,74,40,18.41,scattered clouds
423,Taoudenni,22.6783,-3.9836,85.46,8,0,7.96,clear sky
424,Lodja,-3.4833,23.4333,71.91,95,92,1.5,overcast clouds
425,Abonnema,4.7084,6.7931,80.69,82,78,8.55,broken clouds
426,Manturovo,58.3353,44.7619,23.31,91,100,11.63,overcast clouds
427,Santa Elena,-2.2333,-80.85,83.75,84,40,9.22,light rain
428,Gogrial,8.5332,28.1004,89.49,23,100,5.14,overcast clouds
429,Berlevag,70.8578,29.0864,23.0,80,40,20.71,light snow
430,Sidi Ali,36.0998,0.4206,57.36,79,6,5.61,clear sky
431,Zaria,11.1113,7.7227,84.36,12,25,9.66,scattered clouds
432,Madarounfa,13.3087,7.156,87.84,10,6,9.89,clear sky
433,Juan Lacaze,-34.4342,-57.4381,92.12,70,0,15.46,clear sky
434,Charlestown,-32.95,151.6667,61.74,72,0,5.91,clear sky
435,Iisalmi,63.5592,27.1907,5.81,95,63,6.62,broken clouds
436,Kashary,49.04,41.0056,46.83,71,100,13.62,overcast clouds
437,Milos,36.75,24.4333,57.56,81,94,13.0,overcast clouds
438,Sisimiut,66.9395,-53.6735,20.79,91,89,7.07,overcast clouds
439,Kamenka,51.3223,42.7678,39.6,88,100,18.45,light rain
440,Faya,18.3851,42.4509,60.91,65,99,2.04,overcast clouds
441,Hambantota,6.1241,81.1185,77.18,81,5,16.37,clear sky
442,Sebrovo,50.0981,43.2976,44.82,70,100,17.22,overcast clouds
443,Laukaa,58.7372,29.8453,28.02,88,100,13.18,light snow
444,Templin,53.1186,13.5022,36.18,90,100,3.6,overcast clouds
445,Man,7.4125,-7.5538,81.43,29,41,1.63,scattered clouds
446,Abu Dhabi,24.4667,54.3667,78.94,66,0,4.61,clear sky
447,Pemba,-12.974,40.5178,75.9,94,75,3.44,light rain
448,Mercedes,-34.6515,-59.4307,97.86,17,19,7.07,few clouds
449,Chutove,49.7104,35.1603,46.56,69,100,10.65,overcast clouds
450,Skibbereen,51.55,-9.2667,40.1,98,100,16.35,moderate rain
451,Bubaque,11.2833,-15.8333,77.41,76,52,17.52,broken clouds
452,Lajeado,-29.4669,-51.9614,96.39,56,21,4.16,few clouds
453,Urazovo,50.0836,38.0395,45.34,79,100,11.9,light rain
454,Najran,17.4924,44.1277,77.65,18,41,4.7,scattered clouds
455,Konevo,62.1215,39.3192,21.87,95,100,9.37,snow
456,Horodok,49.1637,26.5839,40.55,78,100,8.08,overcast clouds
457,Taltal,-25.4,-70.4833,74.16,66,0,7.9,clear sky
458,Padang,-0.9492,100.3543,76.42,89,35,3.69,scattered clouds
459,Andra,62.5147,65.8878,-20.85,100,95,6.64,overcast clouds
460,Qostanay,53.1667,63.5833,26.89,100,100,24.61,heavy snow
461,Chimoio,-19.1164,33.4833,69.66,88,40,4.41,scattered clouds
462,Bollnas,61.3482,16.3946,19.9,91,98,3.62,overcast clouds
463,Loding,67.3,14.75,13.91,74,0,14.97,clear sky
464,Kalemie,-5.9475,29.1947,70.75,80,100,4.72,overcast clouds
465,Hryshkivtsi,49.9353,28.6038,37.02,85,100,4.72,overcast clouds
466,San Ignacio,17.1561,-89.0714,87.94,55,75,4.61,broken clouds
467,Okitipupa,6.5047,4.7839,78.55,87,100,1.79,light rain
468,Bakchar,57.0186,82.0711,-0.87,93,27,6.2,scattered clouds
469,Inongo,-1.95,18.2667,75.0,91,97,8.84,light rain
470,Mozhga,56.4447,52.2276,18.57,99,100,4.97,overcast clouds
471,Negombo,7.2083,79.8358,78.85,78,0,4.61,clear sky
472,Puerto Colombia,10.9878,-74.9547,87.89,77,100,19.6,overcast clouds
473,Riberalta,-10.9833,-66.1,91.6,55,75,6.91,broken clouds
474,Oeiras Do Para,-2.0031,-49.8544,79.93,86,100,3.56,overcast clouds
475,Sterlibashevo,53.4376,55.2578,30.54,94,100,13.47,overcast clouds
476,Visnes,59.3556,5.2242,34.21,69,40,12.66,scattered clouds
477,Chake Chake,-5.2459,39.7666,79.21,74,14,11.07,few clouds
478,Trinidad,-14.8333,-64.9,87.78,70,100,6.91,overcast clouds
479,Mantua,45.1667,10.7833,56.08,75,100,4.63,overcast clouds
480,Goedereede,51.8175,3.9806,35.6,88,100,4.0,overcast clouds
481,Birpur,26.5167,87.0167,68.25,46,0,5.55,clear sky
482,Shambu,9.5667,37.1,58.03,61,100,4.29,overcast clouds
483,Fortaleza,-3.7227,-38.5247,86.13,66,0,14.97,clear sky
484,Lagos,6.5833,3.75,86.32,81,100,6.29,overcast clouds
485,Mwense,-10.3845,28.698,68.79,93,100,2.24,light rain
486,Camacupa,-12.0167,17.4833,62.67,92,100,3.33,overcast clouds
487,Jaciara,-15.9653,-54.9683,80.58,81,73,6.73,broken clouds
488,Ivanava,52.1451,25.5365,32.9,81,100,5.66,overcast clouds
489,Roald,62.5833,6.1333,28.76,79,75,11.5,broken clouds
490,Hamilton,39.1834,-84.5333,51.39,36,0,12.66,clear sky
491,Mecca,21.4267,39.8261,77.29,59,4,7.16,clear sky
492,Maragogi,-9.0122,-35.2225,81.45,71,28,11.36,scattered clouds
493,Kresttsy,58.2452,32.5165,27.45,96,61,11.01,light snow
494,Mathbaria,22.2876,89.9593,73.85,29,100,6.35,overcast clouds
495,Pleshanovo,52.8333,53.4833,32.36,98,100,14.47,light snow
496,Dustlik,40.5247,68.0358,49.64,79,100,6.55,overcast clouds
497,Sao Gabriel,-30.3364,-54.32,95.77,26,75,5.86,broken clouds
498,Balkanabat,39.5108,54.3671,57.61,56,100,8.66,overcast clouds
499,Abrego,8.0807,-73.2205,69.91,82,100,4.0,overcast clouds
500,Gat,31.61,34.7642,59.68,76,4,4.12,clear sky
501,Lamu,-2.2717,40.902,80.82,88,16,13.11,few clouds
502,Koslan,63.4564,48.8989,10.6,98,92,5.5,overcast clouds
503,Grand-Lahou,5.1367,-5.0242,80.8,85,57,9.78,broken clouds
504,Atar,20.5169,-13.0499,80.98,7,0,9.31,clear sky
505,Tevriz,57.509,72.4042,-12.35,100,30,2.91,scattered clouds
506,Kemin,42.7846,75.6892,39.43,97,100,2.01,overcast clouds
507,Nuuk,64.1835,-51.7216,30.81,80,40,14.97,scattered clouds
508,Komsomolskiy,40.4272,71.7189,54.32,58,65,4.61,broken clouds
509,Doha,25.2867,51.5333,73.71,75,100,8.05,overcast clouds
510,Afsin,38.2477,36.914,43.88,68,100,1.5,overcast clouds
511,La Asuncion,11.0333,-63.8628,74.93,88,100,16.11,overcast clouds
512,Colesberg,-30.72,25.0972,65.07,21,0,8.28,clear sky
513,Mosquera,4.7059,-74.2302,64.49,72,75,12.66,broken clouds
514,Pimentel,-6.8367,-79.9342,89.89,58,40,11.5,scattered clouds
515,Saint Marys,30.7305,-81.5465,72.05,57,0,18.41,clear sky
516,Tornio,65.8481,24.1466,-9.38,100,98,4.07,overcast clouds
517,Matagami,49.7502,-77.6328,14.11,79,100,16.11,light snow
518,Lincoln,40.8,-96.667,37.17,95,100,11.5,mist
519,Sembe,1.6481,14.5806,74.35,88,91,2.26,overcast clouds
520,Nara,34.6851,135.8049,52.79,58,0,2.26,clear sky
521,Chazuta,-6.5742,-76.1367,95.85,61,95,0.72,overcast clouds
522,Miandrivazo,-19.5167,45.4667,75.54,91,99,4.72,light rain
523,Shache,38.4167,77.2406,52.72,30,66,7.52,broken clouds
524,Madinat Sittah Uktubar,29.8167,31.05,65.8,47,6,7.96,clear sky
525,Olinda,-8.0089,-34.8553,85.73,62,40,12.66,scattered clouds
526,Yuryevets,57.3201,43.1041,24.89,92,100,16.17,overcast clouds
527,Prieska,-29.6641,22.7474,70.32,22,0,7.34,clear sky
528,Adra,36.7496,-3.0206,67.39,77,57,5.55,broken clouds
529,Savannah Bight,16.45,-85.85,79.07,71,100,13.27,overcast clouds
530,Fez,34.0372,-4.9998,62.85,94,20,6.91,few clouds
531,Manhuacu,-20.2581,-42.0336,76.89,78,70,4.61,broken clouds
532,Requena,39.4883,-1.1004,61.79,79,100,16.93,overcast clouds
533,Sohbatpur,28.5202,68.5434,72.79,27,0,1.12,clear sky
534,Weymouth,42.2209,-70.9398,47.32,53,75,16.11,broken clouds
535,Tibati,6.4667,12.6333,77.7,16,97,2.26,overcast clouds
536,Nansio,-2.1333,33.05,70.0,59,79,7.05,broken clouds
537,Khromtau,50.2503,58.4347,16.99,84,96,10.33,overcast clouds
538,Abakaliki,6.3163,8.1169,82.6,71,97,16.71,light rain
539,Pedernales,18.0384,-71.744,78.94,65,14,5.1,few clouds
540,Vienna,48.2085,16.3721,50.11,65,0,9.22,clear sky
541,Palora,-1.7,-77.9333,76.93,81,99,2.51,moderate rain
542,Camocim,-2.9022,-40.8411,82.65,77,46,15.48,scattered clouds
543,Harsany,47.9667,20.75,48.2,79,99,15.57,overcast clouds
544,Puerto Carreno,6.189,-67.4859,91.38,52,40,3.44,scattered clouds
545,Huarmey,-10.0681,-78.1522,79.61,68,100,9.24,overcast clouds
546,Trapani,37.8333,12.6667,56.28,88,75,4.61,broken clouds
547,Watsa,3.0372,29.5355,75.11,48,78,1.77,broken clouds
548,Derzhavinsk,51.1,66.3167,12.65,93,86,12.1,overcast clouds
549,Buarcos,40.166,-8.8768,62.67,97,100,15.9,overcast clouds
550,Saint-Andre-Avellin,45.7168,-75.066,32.97,89,100,9.71,overcast clouds
551,Oksfjord,70.2396,22.3479,26.78,94,100,7.96,light snow
552,Weligama,5.9667,80.4167,74.66,83,5,9.78,clear sky
553,Chambery,45.5667,5.9333,53.35,91,100,16.11,overcast clouds
554,Portsmouth,50.799,-1.0913,41.0,96,100,1.99,light rain
555,Thomaston,32.8882,-84.3266,69.06,12,0,6.91,clear sky
556,Tutoia,-2.7619,-42.2744,82.26,77,41,10.47,scattered clouds
557,Grootfontein,-19.5667,18.1167,71.17,73,100,2.3,overcast clouds
558,San Luis,-33.295,-66.3356,91.22,24,1,6.04,clear sky
559,Baie-Comeau,49.2168,-68.1489,37.08,75,0,5.75,clear sky
560,Rocha,-34.4833,-54.3333,81.23,58,98,13.11,overcast clouds
561,Puri,19.8,85.85,73.92,76,92,6.17,overcast clouds
562,Ambilobe,-13.2,49.05,75.2,90,46,3.83,scattered clouds
563,Watertown,42.3709,-71.1828,47.46,51,100,16.11,overcast clouds
564,Carutapera,-1.195,-46.02,80.87,78,98,6.53,overcast clouds
565,Nalut,30.3333,10.85,68.23,32,0,4.83,clear sky
566,Uniara,26.15,75.2167,67.39,45,39,3.71,scattered clouds
567,Bethanien,-26.502,17.1583,70.25,34,0,7.07,clear sky
568,Pahalgam,34.0333,75.3333,27.84,46,1,12.55,clear sky
569,Maniitsoq,65.4167,-52.9,24.49,89,60,8.34,broken clouds
570,Dubovskoye,47.4092,42.7575,47.07,58,100,15.17,overcast clouds
571,Patacamaya,-17.2333,-67.9167,62.78,40,94,4.79,overcast clouds
572,Kita,13.0349,-9.4895,85.06,6,51,5.44,broken clouds
573,Lypnyazhka,48.4469,31.0761,44.91,82,81,3.85,broken clouds
574,Polunochnoye,60.8697,60.4153,4.98,99,100,2.19,overcast clouds
575,Znamenskoye,57.1281,73.8282,-14.55,100,60,1.16,broken clouds
576,Manyana,-23.4,21.7167,78.03,38,25,7.72,scattered clouds
577,Tabuk,17.4189,121.4443,66.4,94,60,3.04,broken clouds
578,Sable-Sur-Sarthe,47.8376,-0.3329,53.85,89,100,24.23,overcast clouds
579,Patan,27.6667,85.3333,54.0,82,20,0.0,few clouds
580,Opuwo,-18.0607,13.84,70.7,36,33,8.46,scattered clouds
581,Juigalpa,12.1063,-85.3645,89.51,55,40,4.61,scattered clouds
582,Picota,-6.9197,-76.3304,95.49,56,99,1.9,overcast clouds
583,Honningsvag,70.9821,25.9704,24.55,80,100,23.02,snow
584,Camana,-16.6228,-72.7111,77.79,73,9,8.32,clear sky
585,Tamandare,-8.7597,-35.1047,81.41,71,20,10.56,few clouds
586,Banda Aceh,5.5577,95.3222,77.09,84,93,9.08,overcast clouds
587,Hammerfest,70.6634,23.6821,23.45,86,100,23.02,light shower snow
588,Havre-Saint-Pierre,50.2334,-63.5986,37.76,65,0,10.36,clear sky
589,Torbat-E Jam,35.244,60.6225,56.03,59,94,4.0,overcast clouds
590,Ampanihy,-24.7,44.75,74.25,85,99,5.55,overcast clouds
591,Beitbridge,-22.2167,30.0,76.87,52,1,9.93,clear sky
592,Lincoln Village,39.9548,-83.1307,50.11,46,0,12.66,clear sky
593,Mahibadhoo,3.7833,72.9667,81.86,75,9,13.8,clear sky
594,Carnot,4.9409,15.8665,79.61,41,100,3.2,overcast clouds
595,Wanlaweyn,2.6185,44.8938,79.9,68,21,18.1,few clouds
596,Santiago Del Estero,-27.7951,-64.2615,94.14,38,0,9.71,clear sky
597,Oriximina,-1.7656,-55.8661,73.99,96,100,3.36,light rain
598,Alexandria,31.2156,29.9553,57.74,59,61,7.02,broken clouds
599,Dekar,-21.5333,21.9333,73.99,62,51,7.23,broken clouds
600,Shelburne,44.0787,-80.2041,30.99,72,100,14.07,overcast clouds
601,Urumqi,43.801,87.6005,34.75,93,75,8.95,mist
602,Karasjok,69.4719,25.5112,5.11,90,100,5.93,overcast clouds
603,Rockland,41.1668,-74.0496,47.1,53,42,1.99,scattered clouds
604,Tambura,5.6,27.4667,85.89,33,99,3.38,overcast clouds
605,Merritt Island,28.5392,-80.672,82.49,62,100,14.97,overcast clouds
606,Wajir,1.7471,40.0573,86.59,46,70,19.22,broken clouds
607,Ajdabiya,30.7554,20.2263,60.06,67,0,11.88,clear sky
608,Sao Jose Da Coroa Grande,-8.8978,-35.1478,81.54,71,24,11.36,few clouds
609,Homa Bay,-0.5273,34.4571,75.11,54,83,4.9,broken clouds
610,Belogorsk,50.9158,128.4611,20.1,81,100,13.33,overcast clouds
611,Elizabeth City,36.2946,-76.2511,54.01,45,0,12.66,clear sky
612,Geraldton,-28.7667,114.6,72.01,83,75,9.22,broken clouds
613,Imbituba,-28.24,-48.6703,79.36,81,49,12.19,scattered clouds
614,Morant Bay,17.8815,-76.4093,87.42,68,92,9.69,overcast clouds
615,Sohag,26.557,31.6948,66.49,28,0,7.78,clear sky
616,Naron,43.5167,-8.1528,61.59,88,100,15.14,overcast clouds
617,Saint-Paul,-21.0096,55.2707,77.11,96,100,1.01,overcast clouds
618,Ostuni,40.7276,17.5764,54.59,81,100,13.65,overcast clouds
619,Bahia De Caraquez,-0.6,-80.4167,87.98,88,100,7.0,light rain
620,Lalganj,25.8667,85.1833,69.75,46,0,4.83,clear sky
621,Werda,-25.2667,23.2833,77.09,19,0,12.06,clear sky
622,Motril,36.7507,-3.5179,67.89,66,45,9.24,scattered clouds
623,Port Shepstone,-30.7414,30.455,74.71,88,18,11.48,few clouds
624,Constitucion,-35.3333,-72.4167,66.83,67,16,6.17,few clouds
625,Hofn,64.2539,-15.2082,24.98,65,1,20.98,clear sky
626,Saint-Raymond,45.467,-73.6095,35.82,62,100,17.27,overcast clouds
627,Panormos,35.4182,24.6909,58.86,81,77,7.65,broken clouds
628,Louis Trichardt,-23.0439,29.9032,67.87,72,3,3.13,clear sky
629,Portage,41.1667,-81.1998,45.01,56,0,10.36,clear sky
630,Englewood,39.6478,-104.9878,45.34,52,100,8.05,overcast clouds
631,Edd,13.9297,41.6925,83.91,52,68,19.73,broken clouds
632,Marica,-22.9194,-42.8186,87.75,87,96,7.85,overcast clouds
633,Shahrud,36.4182,54.9763,51.55,80,100,4.88,overcast clouds
634,Caraballeda,10.6112,-66.8522,89.67,70,40,8.05,scattered clouds
635,Parana,-31.732,-60.5238,97.57,39,0,3.0,clear sky
636,Semirom,31.4167,51.5667,39.81,94,94,5.01,overcast clouds
637,Halifax,44.6453,-63.5724,37.89,76,100,25.32,overcast clouds
638,Lavumisa,-27.31,31.892,68.81,91,32,2.64,scattered clouds
639,Elumalai,9.8667,77.7,72.77,76,5,2.59,clear sky
640,Port Hawkesbury,45.6169,-61.3485,40.78,61,100,13.0,overcast clouds
641,Uyuni,-20.4597,-66.825,66.54,24,21,11.23,few clouds
642,Barcelos,41.5388,-8.6151,59.14,98,100,8.08,overcast clouds
643,Khatauli,29.2833,77.7167,64.67,31,99,3.8,overcast clouds
644,Terra Santa,-2.1042,-56.4869,74.5,96,100,3.44,light rain
645,Oranjestad,12.524,-70.027,82.35,69,40,17.27,scattered clouds
646,Kamra,33.7473,73.5111,60.94,36,1,9.08,clear sky
647,Rundu,-17.9333,19.7667,68.56,92,100,6.87,moderate rain
648,San-Pedro,4.7485,-6.6363,79.14,88,69,7.65,light rain
649,Lisala,2.15,21.5167,70.45,97,100,1.79,light rain
650,Pangoa,-12.1167,-73.0,81.48,70,100,4.18,overcast clouds
651,Angoche,-16.2325,39.9086,77.2,83,100,7.4,overcast clouds
652,Santo Antonio Do Ica,-3.1022,-67.9397,77.23,91,100,1.28,overcast clouds
653,Cutlerville,42.8409,-85.6636,45.91,41,40,14.97,scattered clouds
654,Tocopilla,-22.092,-70.1979,76.05,70,1,11.74,clear sky
655,Kang,-23.6752,22.7876,77.79,47,32,0.96,scattered clouds
656,Orocue,4.7912,-71.3354,96.39,30,100,5.59,overcast clouds
657,Iki-Burul,45.8208,44.6472,39.58,89,0,12.95,clear sky
658,Beisfjord,68.3751,17.5988,19.45,71,96,6.2,overcast clouds
659,Lalibela,12.0333,39.0333,68.36,39,97,4.72,overcast clouds
660,Melnikovo,56.5558,84.085,7.47,91,97,8.28,overcast clouds
661,Sanghar,26.0466,68.9481,76.39,22,0,10.22,clear sky
662,Troitskoye,52.9821,84.6757,24.04,84,100,14.45,overcast clouds
663,Liverpool,53.4106,-2.9779,35.78,89,75,10.36,light snow
664,The Valley,18.217,-63.0578,80.74,61,20,10.36,few clouds
665,Toktogul,41.8708,72.9402,40.44,80,100,1.57,overcast clouds
666,Abengourou,6.7297,-3.4964,78.85,78,7,4.07,clear sky
667,Sao Joaquim,-28.2939,-49.9317,74.71,55,81,4.72,broken clouds
668,Kattivakkam,13.2167,80.3167,80.69,66,100,5.48,overcast clouds
669,Tiruvallur,13.15,79.9167,80.24,76,100,3.56,overcast clouds
670,Lourdes,43.1,-0.05,59.92,76,40,8.05,scattered clouds
671,Ayagoz,47.9714,80.4392,24.24,87,92,11.39,overcast clouds
672,Valenca,-13.3703,-39.0731,81.77,68,85,6.08,overcast clouds
673,Campoverde,-8.4753,-74.8058,89.29,40,83,3.62,broken clouds
674,Leh,34.1667,77.5833,6.53,55,0,2.98,clear sky
675,Parry Sound,45.3501,-80.033,35.65,48,100,12.19,overcast clouds
676,Ler,8.3018,30.1418,88.36,27,86,3.91,overcast clouds
677,Ostersund,63.1792,14.6357,16.25,79,20,11.5,light snow
678,Nicoya,10.1483,-85.452,91.51,39,99,3.44,overcast clouds
679,Plettenberg Bay,-34.0527,23.3716,64.27,88,0,5.61,clear sky
680,Bella Union,-30.2752,-57.6007,99.9,19,0,2.95,clear sky
681,Guarapari,-20.6667,-40.4975,81.9,78,100,9.37,overcast clouds
682,Curitibanos,-27.2828,-50.5844,74.71,50,86,1.54,overcast clouds
683,Teberda,43.4456,41.7448,31.62,82,28,7.14,scattered clouds
684,Cajaruro,-5.7364,-78.4256,90.45,52,94,3.04,light rain
685,Verkhnyaya Inta,65.9811,60.3094,-3.08,78,95,7.29,overcast clouds
686,La Roche-Sur-Yon,46.6667,-1.4333,55.67,88,100,20.71,overcast clouds
687,Sika,13.3546,-16.345,102.34,25,6,5.99,clear sky
688,Gilbues,-9.8317,-45.3439,86.13,43,100,6.98,overcast clouds
689,Olden,61.8364,6.8064,27.34,97,100,7.14,light snow
690,Uruacu,-14.5247,-49.1408,74.39,86,100,0.4,overcast clouds
691,Mbini,1.574,9.6134,79.21,89,100,6.8,light rain
692,Kumbo,6.2,10.6667,72.16,47,100,3.62,overcast clouds
693,Yadgir,16.7667,77.1333,77.95,35,99,6.33,overcast clouds
694,San Juan De Arama,3.3464,-73.8894,91.04,41,100,7.05,overcast clouds
695,North Myrtle Beach,33.816,-78.68,63.1,30,0,5.75,clear sky
696,Moose Factory,51.2585,-80.6094,21.2,58,100,16.11,overcast clouds
