City_ID,City_ID,City,Country,Lat,Lng,Max Temp,Humidity,Cloudiness,Wind Speed,Description,Hotel Name
7,7,Galle,LK,6.0367,80.217,80.76,72,100,6.17,overcast clouds,Jungle Hostel Villa
10,10,Tabou,CI,4.423,-7.3528,79.93,87,42,4.88,scattered clouds,hôtel le rochet
16,16,Victoria,HK,22.2855,114.1577,78.85,59,0,3.0,clear sky,四季酒店 Four Seasons Hotel
17,17,Quelimane,MZ,-17.8786,36.8883,75.15,94,75,21.99,light rain,Mabassa
22,22,Ambilobe,MG,-13.2,49.05,75.38,90,98,2.26,overcast clouds,Hôtel National
28,28,Takoradi,GH,4.8845,-1.7554,78.75,87,75,4.32,broken clouds,Hillcrest
30,30,Mahebourg,MU,-20.4081,57.7,75.49,94,75,1.14,light rain,Grand Bel Air
32,32,Saint-Philippe,RE,-21.3585,55.7679,72.99,89,69,10.47,moderate rain,Le Baril
34,34,Altagracia De Orituco,VE,9.8601,-66.3814,71.13,89,79,4.88,broken clouds,Hotel El Canastro
39,39,Hithadhoo,MV,-0.6,73.0833,81.73,70,38,4.76,scattered clouds,Pebbles Inn
40,40,Sao Joao Da Barra,BR,-21.6403,-41.0511,76.57,87,100,15.05,overcast clouds,Pousada Mediterrâneo
41,41,Mahajanga,MG,-15.7167,46.3167,75.22,94,20,4.61,few clouds,Vahiny Hotel
45,45,Sao Filipe,CV,14.8961,-24.4956,78.44,50,54,11.72,broken clouds,Bela Vista
53,53,Trincomalee,LK,8.5711,81.2335,80.33,77,100,10.49,overcast clouds,Silver Star Inn
54,54,Micomeseng,GQ,2.1462,10.6164,71.47,99,100,0.56,overcast clouds,Hotel Victor
56,56,Buchanan,LR,5.8808,-10.0467,79.03,90,51,3.67,broken clouds,Phillipmena's Guesthouse
60,60,Dolores,AR,-36.3132,-57.6792,71.37,70,71,13.96,broken clouds,Plaza Hotel
64,64,Beloha,MG,-25.1667,45.05,72.39,90,33,9.53,scattered clouds,Hôtel Oliv
72,72,Waw,SS,7.7029,27.9953,79.86,37,89,2.77,overcast clouds,Safari Park Hotel
74,74,Mitsamiouli,KM,-11.3847,43.2844,82.4,73,43,12.75,scattered clouds,Hotel le Paradis
75,75,Port Blair,IN,11.6667,92.75,82.44,78,40,9.22,mist,Andaman Ocean Breeze
76,76,Tocopilla,CL,-22.092,-70.1979,71.47,83,85,3.78,overcast clouds,hotel Isidora
77,77,Souillac,MU,-20.5167,57.5167,75.58,94,75,1.14,light rain,Hotel SkylineInn
80,80,Cidreira,BR,-30.1811,-50.2056,75.18,89,0,6.08,clear sky,Hotel Castelo
84,84,Mercedes,AR,-34.6515,-59.4307,78.78,57,61,13.4,broken clouds,Gran Hotel Mercedes
90,90,Namibe,AO,-15.1961,12.1522,70.75,77,92,4.12,overcast clouds,Hotel Chik Chik Namibe
95,95,Richards Bay,ZA,-28.783,32.0377,73.81,93,61,3.98,broken clouds,Protea Hotel
104,104,Huarmey,PE,-10.0681,-78.1522,75.79,75,100,2.62,overcast clouds,Hostal Santa Rosa
110,110,Mabaruma,GY,8.2,-59.7833,72.01,93,96,2.95,overcast clouds,Monty Brooms Hotel
111,111,Sao Jose Da Coroa Grande,BR,-8.8978,-35.1478,78.03,79,100,5.39,overcast clouds,Hotel do Sol
112,112,Madras,IN,13.0878,80.2785,84.18,79,40,5.75,mist,Blue Star International
113,113,Mar Del Plata,AR,-38.0023,-57.5575,72.09,91,100,8.05,light rain,Nuevo Ostende
115,115,Samana,DO,19.2056,-69.3369,73.99,64,99,11.03,overcast clouds,Hotel Cotubanamá
118,118,Gwadar,PK,25.1216,62.3254,76.28,55,56,0.63,broken clouds,Sadaf Resorts
119,119,San Miguel,SV,13.4833,-88.1833,74.25,86,100,1.01,overcast clouds,Continental Plaza Hotel
121,121,Saint-Pierre,RE,-21.3393,55.4781,76.57,94,75,8.05,heavy intensity rain,Tropic Hotel
125,125,Kalmunai,LK,7.4167,81.8167,81.52,74,100,6.24,overcast clouds,Saji new food
132,132,Salalah,OM,17.0151,54.0924,73.49,68,20,4.61,few clouds,Muscat International Hotel
133,133,Dapaong,TG,10.8639,0.205,84.2,44,71,6.35,broken clouds,La Residenze
136,136,Saint-Paul,RE,-21.0096,55.2707,77.09,93,37,1.99,moderate rain,Hôtel d'application
138,138,Santa Luzia,BR,-19.7697,-43.8514,74.3,68,0,5.75,clear sky,Alcoboca
141,141,Muisne,EC,0.6,-80.0333,73.4,88,100,2.73,overcast clouds,Hostal Té de Menta
142,142,Ariquemes,BR,-9.9133,-63.0408,73.47,98,100,0.74,overcast clouds,Aquarius
151,151,Saquarema,BR,-22.92,-42.5103,77.14,90,66,8.14,broken clouds,Pousada Garota de Itaúna
157,157,Padang,ID,-0.9492,100.3543,82.45,71,38,4.52,scattered clouds,losmen Surya
162,162,Bengkulu,ID,-3.8004,102.2655,82.96,70,82,5.48,broken clouds,Dena Hotel
164,164,Minab,IR,27.1467,57.0801,76.86,45,100,4.5,overcast clouds,هتل صدف
168,168,Abu Dhabi,AE,24.4667,54.3667,79.95,49,0,17.27,clear sky,Marriott Downtown Abu-Dhabi
169,169,Bathsheba,BB,13.2167,-59.5167,75.81,88,20,2.3,few clouds,Atlantis Hotel
172,172,Cap Malheureux,MU,-19.9842,57.6142,75.47,89,100,1.99,light rain,Cape Garden
175,175,Port-Gentil,GA,-0.7193,8.7815,80.49,80,100,9.55,overcast clouds,Tara-Mé
178,178,Beira,MZ,-19.8436,34.8389,78.89,94,75,10.36,light rain,Hotel Savoy
184,184,Mouila,GA,-1.8685,11.0559,73.62,99,100,2.91,light rain,Le Lac Bleu
185,185,Oussouye,SN,12.485,-16.5469,73.49,37,4,8.19,clear sky,Campement Alulum
187,187,Dom Pedrito,BR,-30.9828,-54.6731,74.57,78,0,11.77,clear sky,Hotel Alexandre
188,188,Dwarka,IN,22.2394,68.9678,81.25,34,4,6.82,clear sky,The Dwarika Hotel
189,189,Upata,VE,8.0086,-62.3989,75.2,88,100,6.46,overcast clouds,Hotel Garibardi
204,204,Binga,ZW,-17.6203,27.3414,70.92,65,100,1.57,overcast clouds,Lake View Inn
208,208,Bougouni,ML,11.417,-7.479,77.32,11,97,4.45,overcast clouds,Hotel Piemont
223,223,Ambanja,MG,-13.6833,48.45,73.33,82,99,2.44,overcast clouds,Hôtel Salama Rose
228,228,Paonta Sahib,IN,30.45,77.6167,77.65,24,0,1.39,clear sky,Hotel Silver Oak
230,230,Quatre Cocos,MU,-20.2078,57.7625,76.08,85,100,11.77,light rain,Horisun
233,233,Grand Gaube,MU,-20.0064,57.6608,76.37,89,100,1.01,light rain,Coco Villa
235,235,Reconquista,AR,-29.15,-59.65,77.38,56,0,6.13,clear sky,Hotel San Martin
239,239,Atar,MR,20.5169,-13.0499,72.5,19,0,8.86,clear sky,فندق سكليل
249,249,Touros,BR,-5.1989,-35.4608,78.33,80,90,10.63,overcast clouds,Pousada Atlântico
254,254,Morondava,MG,-20.2833,44.2833,76.46,90,100,12.12,moderate rain,Hotel Sharon Menabe
255,255,Cayenne,GF,4.9333,-52.3333,75.24,88,0,0.0,clear sky,Central Hôtel
262,262,Barranca,PE,-10.75,-77.7667,74.46,75,100,4.21,overcast clouds,Emperador
274,274,Yenagoa,NG,4.9247,6.2642,77.14,92,34,3.29,scattered clouds,Peretimi Hotels Ltd.
276,276,Port Charlotte,US,26.9762,-82.0906,71.02,82,33,11.99,scattered clouds,Microtel Inn & Suites by Wyndham Port Charlotte
280,280,Cockburn Town,TC,21.4612,-71.1419,73.81,61,27,17.0,scattered clouds,The Salt Raker Inn
292,292,Marawi,PH,7.9986,124.2928,76.17,75,51,7.67,broken clouds,Marawi Resort Hotel
296,296,Dhuburi,IN,26.0333,89.9667,84.6,21,49,2.62,scattered clouds,The Town Hotel
297,297,Piacabucu,BR,-10.4056,-36.4344,76.87,75,64,5.7,broken clouds,O Leão
301,301,Hambantota,LK,6.1241,81.1185,80.94,89,20,8.05,moderate rain,Oasis Aurweda Resort Hambathota
302,302,The Valley,AI,18.217,-63.0578,76.86,73,24,15.23,few clouds,CeBlue
305,305,Coro,VE,11.4045,-69.6734,75.36,88,99,8.46,overcast clouds,Urumaco Suite
328,328,Puerto Colombia,CO,10.9878,-74.9547,77.09,83,72,18.79,broken clouds,Hotel Puerto Colombia
329,329,General Pico,AR,-35.6566,-63.7568,72.64,45,76,17.76,broken clouds,Euskadi Hotel
330,330,Dori,BF,14.0354,-0.0345,81.95,34,2,5.39,clear sky,Kuin Deni Dori
332,332,Dunmore Town,BS,25.5,-76.65,71.1,60,0,13.2,clear sky,The Landing Hotel & Restaurant
334,334,Paita,PE,-5.0892,-81.1144,77.09,83,100,14.29,light rain,Victor's
349,349,Dahanu,IN,19.9667,72.7333,84.38,28,0,9.69,clear sky,Crazy Crab
350,350,Camopi,GF,3.1655,-52.3158,70.21,98,100,2.01,overcast clouds,Chez Lucia
351,351,Caravelas,BR,-17.7125,-39.2481,76.17,85,99,5.12,overcast clouds,Pousada dos Navegantes
355,355,Odienne,CI,9.51,-7.5692,73.2,14,69,1.72,broken clouds,Hotel Frontière
362,362,Angoche,MZ,-16.2325,39.9086,75.16,92,94,7.43,light rain,Hotel Quirimbas
366,366,Praia,CV,14.9215,-23.5087,77.54,29,0,11.5,clear sky,Casa Sodadi
371,371,Veraval,IN,20.9,70.3667,84.65,28,0,11.16,clear sky,Shyam
383,383,Lima,PE,-12.0432,-77.0282,77.9,72,40,11.5,scattered clouds,Hotel Peach Garden
385,385,Eyl,SO,7.9803,49.8164,78.69,72,39,10.76,scattered clouds,فندق ايل دابي
390,390,Rio De Janeiro,BR,-22.9028,-43.2075,80.56,83,0,6.91,clear sky,Ibis Rio porto atlantico
393,393,Matara,LK,5.9485,80.5353,81.0,71,100,9.51,overcast clouds,Villa Palm Breeze
399,399,Hualmay,PE,-11.0964,-77.6139,74.7,77,98,6.24,overcast clouds,Hotel Mi Choacan
400,400,Moroto,UG,2.5345,34.6666,71.33,54,99,3.56,overcast clouds,Shalosa Hotel
428,428,Sur,OM,22.5667,59.5289,75.69,49,89,9.46,overcast clouds,Sur Hotel
430,430,Inhambane,MZ,-23.865,35.3833,76.17,93,12,9.06,few clouds,Hotel de Inhambane
435,435,Salinopolis,BR,-0.6136,-47.3561,76.64,89,100,6.76,overcast clouds,Hotel Salinópolis
450,450,Itarema,BR,-2.9248,-39.9167,75.94,92,100,12.71,overcast clouds,Pousada Oásis
459,459,Pontes E Lacerda,BR,-15.2261,-59.3353,72.05,97,99,0.85,overcast clouds,Hotel Avenida
460,460,Bouake,CI,7.6895,-5.0218,75.69,83,13,6.42,few clouds,Hôtel Arc-En-Ciel
473,473,Mogadishu,SO,2.0371,45.3438,78.94,86,96,13.04,overcast clouds,Villa Rays Restaurant & Hotel
482,482,Maceio,BR,-9.6658,-35.7353,74.64,94,40,4.61,scattered clouds,Maceió Hostel e Pousada
489,489,Ilhabela,BR,-23.7781,-45.3581,78.28,77,100,3.24,overcast clouds,Vila Kebaya
491,491,Pisco,PE,-13.7,-76.2167,73.45,88,0,8.05,clear sky,La Portada
494,494,Parati,BR,-23.2178,-44.7131,75.52,81,100,4.05,overcast clouds,Solar dos Gerânios
503,503,Nizwa,OM,22.9333,57.5333,71.96,27,55,3.29,broken clouds,Nizwa Heritage Inn
510,510,Tabuk,PH,17.4189,121.4443,76.73,70,45,7.92,scattered clouds,Davidson Hotel
518,518,Omboue,GA,-1.5746,9.2618,76.28,92,98,5.64,overcast clouds,Hôtel Georges Faustin Aurat
525,525,Moron,AR,-34.6534,-58.6198,80.92,61,90,10.18,overcast clouds,La Esquina
554,554,Presidencia Roque Saenz Pena,AR,-26.7852,-60.4388,76.89,75,37,5.48,scattered clouds,Hotel Presidente
567,567,Iquique,CL,-20.2208,-70.1431,71.64,77,91,4.09,overcast clouds,Hostal Vivar
570,570,La Mana,EC,-0.9333,-79.2167,73.47,94,100,1.97,light rain,Las Cascadas
572,572,Vila Velha,BR,-20.3297,-40.2925,76.95,93,40,3.44,scattered clouds,Hotel Prainha
578,578,San Martin,AR,-33.081,-68.4681,76.33,39,71,26.11,broken clouds,Hotel Lacava
580,580,Luanda,AO,-8.8368,13.2343,77.0,83,75,2.3,broken clouds,Hotel Forum
584,584,Tefe,BR,-3.3542,-64.7114,74.52,98,100,2.44,overcast clouds,Pousada Santa Teresa
588,588,Farafangana,MG,-22.8167,47.8333,76.19,84,44,4.9,light rain,Le Concombre Masqué
599,599,Umarizal,BR,-5.9906,-37.8144,76.19,72,96,7.78,overcast clouds,Pousada Flores da Terra
602,602,Benguela,AO,-12.5763,13.4055,75.18,85,100,1.88,light rain,Hotel Moibela
606,606,Cartagena,CO,10.3997,-75.5144,76.62,83,20,6.91,few clouds,Hotel Bellamar
609,609,Doha,QA,25.2867,51.5333,73.38,68,0,8.05,clear sky,Al MIrqab
611,611,Am Timan,TD,11.0297,20.2827,80.17,14,100,7.09,overcast clouds,Nimla
615,615,Calabozo,VE,8.9242,-67.4293,81.54,59,91,5.1,overcast clouds,Hotel Plaza Real
618,618,Batticaloa,LK,7.7102,81.6924,81.46,74,100,7.85,overcast clouds,Lake View Hotel
622,622,Moundou,TD,8.5667,16.0833,80.94,52,100,4.07,overcast clouds,فندق جمرا
624,624,Linhares,BR,-19.3911,-40.0722,71.4,96,95,1.9,overcast clouds,Days Inn Linhares
625,625,Guarapari,BR,-20.6667,-40.4975,75.88,89,95,7.72,overcast clouds,Osmar Hotel
627,627,Sao Miguel Do Araguaia,BR,-13.275,-50.1628,70.38,89,98,4.29,overcast clouds,Hotel São Miguel
629,629,Jacmel,HT,18.2342,-72.5347,75.04,76,99,5.19,overcast clouds,Hotel L'Amenitie
634,634,Venado Tuerto,AR,-33.7456,-61.9688,75.78,33,79,6.87,broken clouds,Hotel Salta
648,648,South Venice,US,27.0531,-82.4243,71.98,72,0,6.91,clear sky,Kon-Tiki Motel
653,653,Corn Island,NI,12.1694,-83.0418,79.05,69,40,12.62,scattered clouds,Sunrise Hotel
656,656,Ladario,BR,-19.0047,-57.6017,72.52,95,24,2.17,few clouds,Hotel Gold Fish
664,664,Maragogi,BR,-9.0122,-35.2225,77.67,78,100,4.88,overcast clouds,Pousada Mariluz
675,675,Puerto Carreno,CO,6.189,-67.4859,79.54,73,100,5.75,overcast clouds,Carreño Plaza
678,678,Tigre,AR,-34.426,-58.5796,81.18,61,84,3.0,broken clouds,Posada de 1860
